[{"name": "Krishna Coaching Institute", "address": null, "lat": 25.4653342, "lon": 81.8617836, "rating": null, "reviews": null, "website": null, "phone": null, "source": "osm"}, {"name": "Unacademy IAS", "address": "Tashkent Marg, Civil Lines, Prayagraj", "lat": 25.455254, "lon": 81.836093, "rating": null, "reviews": null, "website": null, "phone": null, "source": "osm"}, {"name": "EXPERT COACHING", "address": null, "lat": 25.455334, "lon": 81.841813, "rating": null, "reviews": null, "website": null, "phone": null, "source": "osm"}, {"name": "mahila sewa sadan inter college", "address": "new bairhana", "lat": 25.4392297, "lon": 81.8598465, "rating": null, "reviews": null, "website": null, "phone": null, "source": "osm"}, {"name": "G C STUDY POINT", "address": "new lashkar lane", "lat": 25.4427989, "lon": 81.8606813, "rating": null, "reviews": null, "website": null, "phone": null, "source": "osm"}, {"name": "Arya kanya inter college", "address": null, "lat": 25.4346694, "lon": 81.8460023, "rating": null, "reviews": null, "website": null, "phone": null, "source": "osm"}, {"name": "MMIC", "address": null, "lat": 25.2897396, "lon": 81.9333557, "rating": null, "reviews": null, "website": null, "phone": null, "source": "osm"}, {"name": "Primary School", "address": null, "lat": 25.3988181, "lon": 81.8624972, "rating": null, "reviews": null, "website": null, "phone": null, "source": "osm"}, {"name": "Jagat Taran Golden Jubilee School", "address": null, "lat": 25.4539878, "lon": 81.8589719, "rating": null, "reviews": null, "website": "goldenjubileeschool.in", "phone": null, "source": "osm"}, {"name": "Saraswati Shishu Mandir", "address": null, "lat": 25.4232958, "lon": 81.8231352, "rating": null, "reviews": null, "website": null, "phone": null, "source": "osm"}, {"name": "MQ Islamic School", "address": null, "lat": 25.4241104, "lon": 81.8052668, "rating": null, "reviews": null, "website": null, "phone": null, "source": "osm"}, {"name": "ML CONVENT SCHOOL", "address": "KRISHNA KUNJ GALI, PRAYAGRAJ", "lat": 25.4556312, "lon": 81.8777388, "rating": null, "reviews": null, "website": null, "phone": null, "source": "osm"}, {"name": "mpvm", "address": null, "lat": 25.4497955, "lon": 81.8600114, "rating": null, "reviews": null, "website": null, "phone": null, "source": "osm"}, {"name": "j.c bose institue", "address": null, "lat": 25.4576206, "lon": 81.8569272, "rating": null, "reviews": null, "website": null, "phone": null, "source": "osm"}, {"name": "St. Mary's Convent Inter College", "address": null, "lat": 25.4575978, "lon": 81.8455433, "rating": null, "reviews": null, "website": null, "phone": null, "source": "osm"}, {"name": "Majidia Islamia Inter College", "address": "Atala Road, Prayagraj", "lat": 25.4295784, "lon": 81.8263182, "rating": null, "reviews": null, "website": "http://www.majidiaislamiaintercollege.com/", "phone": null, "source": "osm"}, {"name": "Dhyeya IAS", "address": "PLOT NO. QQ3A, Sardar Patel Marg, Civil Lines, Prayagraj", "lat": 25.4565198, "lon": 81.8356312, "rating": null, "reviews": null, "website": "https://www.dhyeyaias.com/", "phone": null, "source": "osm"}, {"name": "Pahal Academy", "address": "Beside Bethany Convent School, Naini, Prayagraj", "lat": 25.4055088, "lon": 81.8695293, "rating": null, "reviews": null, "website": null, "phone": null, "source": "osm"}, {"name": "Physics Wallah (PW) Vidyapeeth", "address": "Vrindavan Tower, Tashkent Marg, Civil Lines, Prayagraj", "lat": 25.4557423, "lon": 81.8359538, "rating": null, "reviews": null, "website": null, "phone": null, "source": "osm"}, {"name": "Atheletics ground", "address": null, "lat": 25.3768568, "lon": 81.8526759, "rating": null, "reviews": null, "website": null, "phone": null, "source": "osm"}, {"name": "kho kho ground", "address": null, "lat": 25.3777098, "lon": 81.8532124, "rating": null, "reviews": null, "website": null, "phone": null, "source": "osm"}, {"name": "assembly ground", "address": null, "lat": 25.3772445, "lon": 81.852971, "rating": null, "reviews": null, "website": null, "phone": null, "source": "osm"}, {"name": "KENDRIYA VIDYALAYA COD CHHEOKI PRAYAGRAJ", "address": null, "lat": 25.3773996, "lon": 81.8527081, "rating": null, "reviews": null, "website": null, "phone": null, "source": "osm"}, {"name": "Colony ground", "address": null, "lat": 25.3759407, "lon": 81.8515279, "rating": null, "reviews": null, "website": null, "phone": null, "source": "osm"}, {"name": "PLAYING GROUND", "address": null, "lat": 25.3794086, "lon": 81.8446829, "rating": null, "reviews": null, "website": null, "phone": null, "source": "osm"}, {"name": "LAKSHYA COACHING CLASSES", "address": null, "lat": 25.3779388, "lon": 81.8441505, "rating": null, "reviews": null, "website": null, "phone": null, "source": "osm"}, {"name": "AKSH COACHING CLASSES", "address": null, "lat": 25.3787482, "lon": 81.8446038, "rating": null, "reviews": null, "website": null, "phone": null, "source": "osm"}, {"name": "ASSEMBLY GROUND", "address": null, "lat": 25.4625916, "lon": 81.8405524, "rating": null, "reviews": null, "website": null, "phone": null, "source": "osm"}, {"name": "Typing Center", "address": null, "lat": 25.4655642, "lon": 81.8717359, "rating": null, "reviews": null, "website": null, "phone": null, "source": "osm"}, {"name": "PUSHPENDRA YADAV CLASSES", "address": null, "lat": 25.4597651, "lon": 81.8659614, "rating": null, "reviews": null, "website": null, "phone": "+91 9026167448", "source": "osm"}, {"name": "HOLY TRINITY SCHOOL ALLAHABAD", "address": null, "lat": 25.4620292, "lon": 81.8614059, "rating": null, "reviews": null, "website": null, "phone": null, "source": "osm"}, {"name": "GD PUBLIC SCHOOL", "address": null, "lat": 25.4652799, "lon": 81.8617506, "rating": null, "reviews": null, "website": null, "phone": null, "source": "osm"}, {"name": "ROYAL HOUSE SCHOOL", "address": null, "lat": 25.447504, "lon": 81.8823977, "rating": null, "reviews": null, "website": null, "phone": null, "source": "osm"}, {"name": "C.A.V. Inter College", "address": null, "lat": 25.4485955, "lon": 81.8449649, "rating": null, "reviews": null, "website": null, "phone": null, "source": "osm"}, {"name": "Cricket Ground", "address": null, "lat": 25.4477174, "lon": 81.8444478, "rating": null, "reviews": null, "website": null, "phone": null, "source": "osm"}, {"name": "Next IAS", "address": null, "lat": 25.4558965, "lon": 81.8355614, "rating": null, "reviews": null, "website": null, "phone": null, "source": "osm"}, {"name": "Kishori Lal P.G. College", "address": "Chak Raghunath, Naini", "lat": 25.3972214, "lon": 81.8781044, "rating": null, "reviews": null, "website": null, "phone": null, "source": "osm"}, {"name": "SMT D SINGH SARSWATI SHISHU VIDYA MANDIR INTER COLLEGE", "address": "ADA Colony, Doorwani Nagar, Naini", "lat": 25.3924459, "lon": 81.8839473, "rating": null, "reviews": null, "website": null, "phone": null, "source": "osm"}, {"name": "Aakash Institute", "address": "Mirzapur Road, Prayagraj", "lat": 25.3960997, "lon": 81.8638958, "rating": null, "reviews": null, "website": "https://centers.aakash.ac.in/aakash-institute-naini-coaching-center-mirzapur-main-road-prayagraj-130723/Home", "phone": "+918800898684", "source": "osm"}, {"name": "Bethel Academy School", "address": null, "lat": 25.3613416, "lon": 81.8387521, "rating": null, "reviews": null, "website": null, "phone": null, "source": "osm"}, {"name": "Sagheer Memorial Oriental College", "address": "Pura Fateh Mohammad, Naini, Prayagraj", "lat": 25.4028882, "lon": 81.8731774, "rating": null, "reviews": null, "website": null, "phone": null, "source": "osm"}, {"name": "Central Academy", "address": null, "lat": 25.4270222, "lon": 81.9143075, "rating": null, "reviews": null, "website": null, "phone": null, "source": "osm"}, {"name": "Government School", "address": "Sir PC Banerjee Road, Prayagraj", "lat": 25.4676755, "lon": 81.8642396, "rating": null, "reviews": null, "website": null, "phone": null, "source": "osm"}, {"name": "Drishti IAS", "address": "Tashkent Marg, Civil Lines, Prayagraj", "lat": 25.4551077, "lon": 81.8376567, "rating": null, "reviews": null, "website": "https://www.drishtiias.com/", "phone": null, "source": "osm"}, {"name": "Drishti IAS", "address": "Tashkent Marg, Civil Lines, Prayagraj", "lat": 25.4550591, "lon": 81.8380233, "rating": null, "reviews": null, "website": "https://www.drishtiias.com/", "phone": null, "source": "osm"}, {"name": "Dhrishti Judiciary / CLAT", "address": "Tashkent Marg, Civil Lines, Prayagraj", "lat": 25.4550668, "lon": 81.8381944, "rating": null, "reviews": null, "website": null, "phone": null, "source": "osm"}, {"name": "Aakash", "address": null, "lat": 25.4526503, "lon": 81.8326936, "rating": null, "reviews": null, "website": null, "phone": null, "source": "osm"}, {"name": "Arya Kanya Degree College", "address": null, "lat": 25.4338476, "lon": 81.8464687, "rating": null, "reviews": null, "website": null, "phone": null, "source": "osm"}, {"name": "Center Of Computer Education", "address": null, "lat": 25.4591513, "lon": 81.8526009, "rating": null, "reviews": null, "website": null, "phone": null, "source": "osm"}, {"name": "Allahabad Guru Kulam", "address": null, "lat": 25.4222939, "lon": 81.9074683, "rating": null, "reviews": null, "website": null, "phone": null, "source": "osm"}, {"name": "History Department", "address": null, "lat": 25.4668485, "lon": 81.8577572, "rating": null, "reviews": null, "website": null, "phone": null, "source": "osm"}, {"name": "AK Singh Classes", "address": null, "lat": 25.429269, "lon": 81.9119456, "rating": null, "reviews": null, "website": null, "phone": null, "source": "osm"}, {"name": "Vijaynagram Hall", "address": null, "lat": 25.4599728, "lon": 81.8517957, "rating": null, "reviews": null, "website": null, "phone": null, "source": "osm"}, {"name": "MPVM GANGA GURUKULAM", "address": null, "lat": 25.5263718, "lon": 81.8462282, "rating": null, "reviews": null, "website": null, "phone": null, "source": "osm"}, {"name": "Dr Rajendra Prasad National Law university Prayagraj, BBS college of engineering and technology.", "address": null, "lat": 25.5272083, "lon": 81.8468948, "rating": null, "reviews": null, "website": null, "phone": null, "source": "osm"}]