[{"name": "triVaAg", "address": "Lucknow", "lat": 26.8535396, "lon": 80.9458389, "rating": null, "reviews": null, "website": null, "phone": null, "source": "osm"}, {"name": "suryodaya public intercollege", "address": "purvideen khera, para", "lat": 26.8325512, "lon": 80.8608407, "rating": null, "reviews": null, "website": null, "phone": null, "source": "osm"}, {"name": "annie besant inter college", "address": "fims college road, vinay khand -1 , gomtinagar", "lat": 26.8623446, "lon": 81.0200123, "rating": null, "reviews": null, "website": null, "phone": null, "source": "osm"}, {"name": "New Public Inter College", "address": "Kanchana Bihari Marg", "lat": 26.9027279, "lon": 80.9774464, "rating": null, "reviews": null, "website": null, "phone": null, "source": "osm"}, {"name": "City  Digree College", "address": null, "lat": 26.8928123, "lon": 81.0595358, "rating": null, "reviews": null, "website": null, "phone": null, "source": "osm"}, {"name": "La Martini\u00e8re College, Lucknow", "address": "Schilling road", "lat": 26.8396845, "lon": 80.9627492, "rating": null, "reviews": null, "website": "https://www.lamartinierelucknow.org/", "phone": "+91 94544 69226", "source": "osm"}, {"name": "St. James Mission School, Rajaji Puram", "address": null, "lat": 26.8401823, "lon": 80.8809564, "rating": null, "reviews": null, "website": null, "phone": null, "source": "osm"}, {"name": "SKD Academy, Rajaji Puram", "address": null, "lat": 26.8396639, "lon": 80.8762644, "rating": null, "reviews": null, "website": null, "phone": null, "source": "osm"}, {"name": "Red Rose School", "address": null, "lat": 26.8365853, "lon": 80.8802632, "rating": null, "reviews": null, "website": null, "phone": null, "source": "osm"}, {"name": "Lucknow Public School", "address": "Sector-F, Jankipuram", "lat": 26.9143752, "lon": 80.9506536, "rating": null, "reviews": null, "website": null, "phone": null, "source": "osm"}, {"name": "APS Academy", "address": null, "lat": 26.7755203, "lon": 80.9433478, "rating": null, "reviews": null, "website": null, "phone": null, "source": "osm"}, {"name": "Coach Up, IAS Prep", "address": null, "lat": 26.8954463, "lon": 80.9436442, "rating": null, "reviews": null, "website": null, "phone": null, "source": "osm"}, {"name": "Study Center Aliganj", "address": null, "lat": 26.8963905, "lon": 80.9431736, "rating": null, "reviews": null, "website": null, "phone": null, "source": "osm"}, {"name": "Oxford University Press", "address": null, "lat": 26.8963796, "lon": 80.9435555, "rating": null, "reviews": null, "website": null, "phone": null, "source": "osm"}, {"name": "GATE Coaching", "address": null, "lat": 26.8969594, "lon": 80.9447928, "rating": null, "reviews": null, "website": null, "phone": null, "source": "osm"}, {"name": "Dhyeya IAS", "address": null, "lat": 26.8990818, "lon": 80.9452181, "rating": null, "reviews": null, "website": null, "phone": null, "source": "osm"}, {"name": "ALS IAS Coaching", "address": null, "lat": 26.8995855, "lon": 80.9448489, "rating": null, "reviews": null, "website": null, "phone": null, "source": "osm"}, {"name": "Kendriya Vidyalaya, Aliganj", "address": null, "lat": 26.9012471, "lon": 80.9479966, "rating": null, "reviews": null, "website": null, "phone": null, "source": "osm"}, {"name": "KV Aliganj Ground", "address": null, "lat": 26.900517, "lon": 80.9489553, "rating": null, "reviews": null, "website": null, "phone": null, "source": "osm"}, {"name": "CMS Ground", "address": null, "lat": 26.9030479, "lon": 80.950391, "rating": null, "reviews": null, "website": null, "phone": null, "source": "osm"}, {"name": "IMZ Coaching Institute", "address": null, "lat": 26.902036, "lon": 80.9482018, "rating": null, "reviews": null, "website": null, "phone": null, "source": "osm"}, {"name": "Dr. Sarvepalli Radhakrishnan Girls Inter College", "address": null, "lat": 26.7863794, "lon": 80.9439776, "rating": null, "reviews": null, "website": null, "phone": null, "source": "osm"}, {"name": "National PG School", "address": "Gandhi nagar, Telibagh, Lucknow", "lat": 26.7800404, "lon": 80.9449385, "rating": null, "reviews": null, "website": null, "phone": null, "source": "osm"}, {"name": "Allen House Public School", "address": null, "lat": 26.780845, "lon": 80.9559272, "rating": null, "reviews": null, "website": null, "phone": null, "source": "osm"}, {"name": "Gurukul Academy", "address": null, "lat": 26.875625, "lon": 80.9820831, "rating": null, "reviews": null, "website": null, "phone": null, "source": "osm"}, {"name": "Strawberry Kid's Play School", "address": null, "lat": 26.8851107, "lon": 80.9921054, "rating": null, "reviews": null, "website": null, "phone": null, "source": "osm"}, {"name": "GD GOENKA PUBLIC SCHOOL", "address": null, "lat": 26.779741, "lon": 80.9918524, "rating": null, "reviews": null, "website": null, "phone": null, "source": "osm"}, {"name": "Seth Anandram Jaipuria School", "address": "Kulhar katta road, near paara chauki, sarosa", "lat": 26.82391, "lon": 80.8459654, "rating": null, "reviews": null, "website": null, "phone": null, "source": "osm"}, {"name": "Indus international academy", "address": "Raebareilly road, GGI road", "lat": 26.7228775, "lon": 80.97789, "rating": null, "reviews": null, "website": null, "phone": null, "source": "osm"}, {"name": "Islamia Public school", "address": null, "lat": 26.8853145, "lon": 80.9971851, "rating": null, "reviews": null, "website": null, "phone": null, "source": "osm"}, {"name": "Shaheed Memorial Public School", "address": null, "lat": 26.7713352, "lon": 80.9846453, "rating": null, "reviews": null, "website": null, "phone": null, "source": "osm"}, {"name": "Amogh IAS", "address": null, "lat": 26.797061, "lon": 81.0116623, "rating": null, "reviews": null, "website": null, "phone": null, "source": "osm"}, {"name": "Global Academy of English Language", "address": "10 A, Station Road", "lat": 26.838447, "lon": 80.9341933, "rating": null, "reviews": null, "website": null, "phone": null, "source": "osm"}, {"name": "Loyola International School", "address": "Mahanagar, Lucknow", "lat": 26.8710393, "lon": 80.9617165, "rating": null, "reviews": null, "website": null, "phone": null, "source": "osm"}, {"name": "PMD Academy", "address": null, "lat": 26.7273761, "lon": 80.8981284, "rating": null, "reviews": null, "website": null, "phone": null, "source": "osm"}, {"name": "Tiwari Classes", "address": null, "lat": 26.8888148, "lon": 80.9981244, "rating": null, "reviews": null, "website": null, "phone": null, "source": "osm"}, {"name": "skv academy", "address": "Address : 2nd FLOOR, SOHAN HEIGHTS, Sector-A,B-2/361, Ring Road, Lucknow", "lat": 26.9112986, "lon": 80.9440956, "rating": null, "reviews": null, "website": "https://skv.academy/", "phone": "+91 8979133334", "source": "osm"}, {"name": "Montfort School", "address": null, "lat": 26.8731258, "lon": 80.9555272, "rating": null, "reviews": null, "website": null, "phone": null, "source": "osm"}, {"name": "A.K.D Public School", "address": null, "lat": 26.8066313, "lon": 80.9056065, "rating": null, "reviews": null, "website": null, "phone": null, "source": "osm"}, {"name": "Wisdom College for Creativity and Design Lucknow", "address": "2nd Floor, Kapoorthala Road, Sector F, Chauraha, Aliganj, Lucknow", "lat": 26.8826854, "lon": 80.9483047, "rating": null, "reviews": null, "website": "https://wisdomdesigncollege.in/", "phone": "+91-7860605786", "source": "osm"}]